Country,Density (P/Km2),Abbreviation,Agricultural Land( %),Land Area(Km2),Armed Forces size,Birth Rate,Calling Code,Capital/Major City,Co2-Emissions,CPI,CPI Change (%),Currency-Code,Fertility Rate,Forested Area (%),Gasoline Price,GDP,Gross primary education enrollment (%),Gross tertiary education enrollment (%),Infant mortality,Largest city,Life expectancy,Maternal mortality ratio,Minimum wage,Official language,Out of pocket health expenditure,Physicians per thousand,Population,Population: Labor force participation (%),Tax revenue (%),Total tax rate,Unemployment rate,Urban_population,Latitude,Longitude
Afghanistan,60,AF,0.5810,"652,230","323,000",32.49,93,Kabul,"8,672",149.90,0.02,AFN,4.47,0.0210,0.7,19101353833.00,1.0400,0.0970,47.90,Kabul,64.50,638.00,0.43,Pashto,0.78,0.28,"38,041,754",0.4890,0.0930,0.7140,11.12%,"9,797,273",33.93911,67.70995
Albania,105,AL,0.4310,"28,748","9,000",11.78,355,Tirana,"4,536",119.05,0.01,ALL,1.62,0.2810,1.36,15278077447.00,1.0700,0.5500,7.80,Tirana,78.50,15.00,1.12,Albanian,0.57,1.20,"2,854,191",0.5570,0.1860,0.3660,12.33%,"1,747,593",41.153332,20.16833
Algeria,18,DZ,0.1740,"2,381,741","317,000",24.28,213,Algiers,"150,006",151.36,0.02,DZD,3.02,0.0080,0.28,169988236398.00,1.0990,0.5140,20.10,Algiers,76.70,112.00,0.95,Arabic,0.28,1.72,"43,053,054",0.4120,0.3720,0.6610,11.70%,"31,510,100",28.033886,1.65963
Andorra,164,AD,0.4000,468,,7.2,376,Andorra la Vella,469,,,EUR,1.27,0.3400,1.51,3154057987.00,1.0640,,2.70,Andorra la Vella,,,6.63,Catalan,0.36,3.33,"77,142",,,,,"67,873",42.506285,1.52180
Angola,26,AO,0.4750,"1,246,700","117,000",40.73,244,Luanda,"34,693",261.73,0.17,AOA,5.52,0.4630,0.97,94635415870.00,1.1350,0.0930,51.60,Luanda,60.80,241.00,0.71,Portuguese,0.33,0.21,"31,825,295",0.7750,0.0920,0.4910,6.89%,"21,061,025",-11.202692,17.87389
Antigua and Barbuda,223,AG,0.2050,443,0,15.33,1,"St. John's, Saint John",557,113.81,0.01,XCD,1.99,0.2230,0.99,1727759259.00,1.0500,0.2480,5.00,"St. John's, Saint John",76.90,42.00,3.04,English,0.24,2.76,"97,118",,0.1650,0.4300,,"23,800",17.060816,-61.79643
Argentina,17,AR,0.5430,"2,780,400","105,000",17.02,54,Buenos Aires,"201,348",232.75,0.54,ARS,2.26,0.0980,1.1,449663446954.00,1.0970,0.9000,8.80,Buenos Aires,76.50,39.00,3.35,Spanish,0.18,3.96,"44,938,712",0.6130,0.1010,1.0630,9.79%,"41,339,571",-38.416097,-63.61667
Armenia,104,AM,0.5890,"29,743","49,000",13.99,374,Yerevan,"5,156",129.18,0.01,AMD,1.76,0.1170,0.77,13672802158.00,0.9270,0.5460,11.00,Yerevan,74.90,26.00,0.66,Armenian,0.82,4.40,"2,957,731",0.5560,0.2090,0.2260,16.99%,"1,869,848",40.069099,45.03819
Australia,3,AU,0.4820,"7,741,220","58,000",12.6,61,Canberra,"375,908",119.80,0.02,AUD,1.74,0.1630,0.93,1392680589329.00,1.0030,1.1310,3.10,Sydney,82.70,6.00,13.59,None,0.20,3.68,"25,766,605",0.6550,0.2300,0.4740,5.27%,"21,844,756",-25.274398,133.77514
Austria,109,AT,0.3240,"83,871","21,000",9.7,43,Vienna,"61,448",118.06,0.02,EUR,1.47,0.4690,1.2,446314739528.00,1.0310,0.8510,2.90,Vienna,81.60,5.00,,German,0.18,5.17,"8,877,067",0.6070,0.2540,0.5140,4.67%,"5,194,416",47.516231,14.55007
Azerbaijan,123,AZ,0.5770,"86,600","82,000",14,994,Baku,"37,620",156.32,0.03,AZN,1.73,0.1410,0.56,39207000000.00,0.9970,0.2770,19.20,Baku,72.90,26.00,0.47,Azerbaijani language,0.79,3.45,"10,023,318",0.6650,0.1300,0.4070,5.51%,"5,616,165",40.143105,47.57693
The Bahamas,39,BS,0.0140,"13,880","1,000",13.97,1,"Nassau, Bahamas","1,786",116.22,0.03,,1.75,0.5140,0.92,12827000000.00,0.8140,0.1510,8.30,"Nassau, Bahamas",73.80,70.00,5.25,English,0.28,1.94,"389,482",0.7460,0.1480,0.3380,10.36%,"323,784",25.03428,-77.39628
Bahrain,"2,239",BH,0.1110,765,"19,000",13.99,973,Manama,"31,694",117.59,0.02,BHD,1.99,0.0080,0.43,38574069149.00,0.9940,0.5050,6.10,Riffa,77.20,14.00,,Arabic,0.25,0.93,"1,501,635",0.7340,0.0420,0.1380,0.71%,"1,467,109",26.0667,50.55770
Bangladesh,"1,265",BD,0.7060,"148,460","221,000",18.18,880,Dhaka,"84,246",179.68,0.06,BDT,2.04,0.1100,1.12,302571254131.00,1.1650,0.2060,25.10,Dhaka,72.30,173.00,0.51,Bengali,0.72,0.58,"167,310,838",0.5900,0.0880,0.3340,4.19%,"60,987,417",23.684994,90.35633
Barbados,668,BB,0.2330,430,"1,000",10.65,1,Bridgetown,"1,276",134.09,0.04,BBD,1.62,0.1470,1.81,5209000000.00,0.9940,0.6540,11.30,Bridgetown,79.10,27.00,3.13,English,0.45,2.48,"287,025",0.6520,0.2750,0.3560,10.33%,"89,431",13.193887,-59.54320
Belarus,47,BY,0.4200,"207,600","155,000",9.9,375,Minsk,"58,280",,0.06,BYN,1.45,0.4260,0.6,63080457023.00,1.0050,0.8740,2.60,Minsk,74.20,2.00,1.49,Russian,0.35,5.19,"9,466,856",0.6410,0.1470,0.5330,4.59%,"7,482,982",53.709807,27.95339
Belgium,383,BE,0.4460,"30,528","32,000",10.3,32,City of Brussels,"96,889",117.11,0.01,EUR,1.62,0.2260,1.43,529606710418.00,1.0390,0.7970,2.90,Brussels,81.60,5.00,10.31,French,0.18,3.07,"11,484,055",0.5360,0.2400,0.5540,5.59%,"11,259,082",50.503887,4.46994
Belize,17,BZ,0.0700,"22,966","2,000",20.79,501,Belmopan,568,105.68,-0.01,BZD,2.31,0.5970,1.13,1879613600.00,1.1170,0.2470,11.20,Belize City,74.50,36.00,1.65,English,0.23,1.12,"390,353",0.6510,0.2630,0.3110,6.41%,"179,039",17.189877,-88.49765
Benin,108,BJ,0.3330,"112,622","12,000",36.22,229,Porto-Novo,"6,476",110.71,-0.01,XOF,4.84,0.3780,0.72,14390709095.00,1.2200,0.1230,60.50,Cotonou,61.50,397.00,0.39,French,0.41,0.08,"11,801,151",0.7090,0.1080,0.4890,2.23%,"5,648,149",9.30769,2.31583
Bhutan,20,BT,0.1360,"38,394","6,000",17.26,975,Thimphu,"1,261",167.18,0.03,,1.98,0.7250,0.98,2446674101.00,1.0010,0.1560,24.80,Thimphu,71.50,183.00,0.32,Dzongkha,0.20,0.42,"727,145",0.6670,0.1600,0.3530,2.34%,"317,538",27.514162,90.43360
Bolivia,11,BO,0.3480,"1,098,581","71,000",21.75,591,Sucre,"21,606",148.32,0.02,BOB,2.73,0.5030,0.71,40895322865.00,0.9820,,21.80,Santa Cruz de la Sierra,71.20,155.00,1.36,Spanish,0.26,1.59,"11,513,100",0.7180,0.1700,0.8370,3.50%,"8,033,035",-16.290154,-63.58865
Bosnia and Herzegovina,64,BA,0.4310,"51,197","11,000",8.11,387,Sarajevo,"21,848",104.90,0.01,BAM,1.27,0.4270,1.05,20047848435.00,,0.2330,5.00,Tuzla Canton,77.30,10.00,1.04,Bosnian,0.29,2.16,"3,301,000",0.4640,0.2040,0.2370,18.42%,"1,605,144",43.915886,17.67908
Botswana,4,BW,0.4560,"581,730","9,000",24.82,267,Gaborone,"6,340",149.75,0.03,BWP,2.87,0.1890,0.71,18340510789.00,1.0320,0.2490,30.00,Gaborone,69.30,144.00,0.29,English,0.05,0.37,"2,346,179",0.7080,0.1950,0.2510,18.19%,"1,616,550",-22.328474,24.68487
Brazil,25,BR,0.3390,"8,515,770","730,000",13.92,55,Brasï¿½ï¿½ï¿½,"462,299",167.40,0.04,BRL,1.73,0.5890,1.02,1839758040766.00,1.1540,0.5130,12.80,Sï¿½ï¿½ï¿½ï¿½,75.70,60.00,1.53,Portuguese,0.28,2.15,"212,559,417",0.6390,0.1420,0.6510,12.08%,"183,241,641",-14.235004,-51.92528
Brunei,83,BN,0.0270,"5,765","8,000",14.9,673,Bandar Seri Begawan,"7,664",99.03,0.00,BND,1.85,0.7210,0.37,13469422941.00,1.0320,0.3140,9.80,,75.70,31.00,,Malay,0.06,1.61,"433,285",0.6470,,0.0800,9.12%,"337,711",4.535277,114.72767
Bulgaria,64,BG,0.4630,"110,879","31,000",8.9,359,Sofia,"41,708",114.42,0.03,BGN,1.56,0.3540,1.11,86000000000.00,0.8930,0.7100,5.90,Sofia,74.90,10.00,1.57,Bulgarian,0.48,4.03,"6,975,761",0.5540,0.2020,0.2830,4.34%,"5,256,027",42.733883,25.48583
Burkina Faso,76,BF,0.4420,"274,200","11,000",37.93,226,Ouagadougou,"3,418",106.58,-0.03,XOF,5.19,0.1930,0.98,15745810235.00,0.9610,0.0650,49.00,Ouagadougou,61.20,320.00,0.34,French,0.36,0.08,"20,321,378",0.6640,0.1500,0.4130,6.26%,"6,092,349",12.238333,-1.56159
Burundi,463,BI,0.7920,"27,830","31,000",39.01,257,Bujumbura,495,182.11,-0.01,BIF,5.41,0.1090,1.21,3012334882.00,1.2140,0.0610,41.00,Bujumbura,61.20,548.00,,Kirundi,0.19,0.10,"11,530,580",0.7920,0.1360,0.4120,1.43%,"1,541,177",-3.373056,29.91889
Ivory Coast,83,CI,0.6480,"322,463","27,000",35.74,225,Yamoussoukro,"9,674",111.61,-0.01,XOF,4.65,0.3270,0.93,58792205642.00,0.9980,0.0930,59.40,Abidjan,57.40,617.00,0.36,French,0.36,0.23,"25,716,544",0.5700,0.1180,0.5010,3.32%,"13,176,900",7.539989,-5.54708
Cape Verde,138,CV,0.1960,"4,033","1,000",19.49,238,Praia,543,110.50,0.01,CVE,2.27,0.2250,1.02,1981845741.00,1.0400,0.2360,16.70,Praia,72.80,58.00,0.68,Portuguese,0.23,0.77,"483,628",0.6050,0.2010,0.3750,12.25%,"364,029",16.5388,-23.04180
Cambodia,95,KH,0.3090,"181,035","191,000",22.46,855,Phnom Penh,"9,919",127.63,0.03,,2.5,0.5290,0.9,27089389787.00,1.0740,0.1370,24.00,Phnom Penh,69.60,160.00,,Khmer language,0.59,0.17,"16,486,542",0.8230,0.1710,0.2310,0.68%,"3,924,621",12.565679,104.99096
Cameroon,56,CM,0.2060,"475,440","24,000",35.39,237,Yaoundï¿½,"8,291",118.65,0.03,XAF,4.57,0.3930,1.03,38760467033.00,1.0340,0.1280,50.60,Douala,58.90,529.00,0.35,French,0.70,0.09,"25,876,380",0.7610,0.1280,0.5770,3.38%,"14,741,256",7.369722,12.35472
Canada,4,CA,0.0690,"9,984,670","72,000",10.1,1,Ottawa,"544,894",116.76,0.02,CAD,1.5,0.3820,0.81,1736425629520.00,1.0090,0.6890,4.30,Toronto,81.90,10.00,9.51,French,0.15,2.61,"36,991,981",0.6510,0.1280,0.2450,5.56%,"30,628,482",56.130366,-106.34677
Central African Republic,8,CF,0.0820,"622,984","8,000",35.35,236,Bangui,297,186.86,0.37,,4.72,0.3560,1.41,2220307369.00,1.0200,0.0300,84.50,Bangui,52.80,829.00,0.37,French,0.40,0.06,"4,745,185",0.7200,0.0860,0.7330,3.68%,"1,982,064",6.611111,20.93944
Chad,13,TD,0.3970,"1,284,000","35,000",42.17,235,N'Djamena,"1,016",117.70,-0.01,XAF,5.75,0.0380,0.78,11314951343.00,0.8680,0.0330,71.40,N'Djamena,54.00,1140.00,0.6,French,0.56,0.04,"15,946,876",0.7070,,0.6350,1.89%,"3,712,273",15.454166,18.73221
Chile,26,CL,0.2120,"756,096","122,000",12.43,56,Santiago,"85,822",131.91,0.03,CLP,1.65,0.2430,1.03,282318159745.00,1.0140,0.8850,6.20,Santiago,80.00,13.00,2,Spanish,0.32,2.59,"18,952,038",0.6260,0.1820,0.3400,7.09%,"16,610,135",-35.675147,-71.54297
China,153,CN,0.5620,"9,596,960","2,695,000",10.9,86,Beijing,"9,893,038",125.08,0.03,CNY,1.69,0.2240,0.96,19910000000000.00,1.0020,0.5060,7.40,Shanghai,77.00,29.00,0.87,Standard Chinese,0.32,1.98,"1,397,715,000",0.6800,0.0940,0.5920,4.32%,"842,933,962",35.86166,104.19540
Colombia,46,CO,0.4030,"1,138,910","481,000",14.88,57,Bogotï¿½,"97,814",140.95,0.04,COP,1.81,0.5270,0.68,323802808108.00,1.1450,0.5530,12.20,Bogotï¿½,77.10,83.00,1.23,Spanish,0.18,2.18,"50,339,443",0.6880,0.1440,0.7120,9.71%,"40,827,302",4.570868,-74.29733
Comoros,467,KM,0.7150,"2,235",,31.88,269,"Moroni, Comoros",202,103.62,-0.04,KMF,4.21,0.1970,,1185728677.00,0.9950,0.0900,51.30,"Moroni, Comoros",64.10,273.00,0.71,French,0.75,0.27,"850,886",0.4330,,2.1960,4.34%,"248,152",-11.6455,43.33330
Republic of the Congo,16,,0.3110,"342,000","12,000",32.86,242,Brazzaville,"3,282",124.74,0.02,XAF,4.43,0.6540,0.97,10820591131.00,1.0660,0.1270,36.20,Brazzaville,64.30,378.00,0.88,French,0.44,0.12,"5,380,508",0.6940,0.0900,0.5430,9.47%,"3,625,010",-0.228021,15.82766
Costa Rica,100,CR,0.3450,"51,100","10,000",13.97,506,San Josï¿½ï¿½ï¿½ï¿½ï¿½ï¿½,"8,023",128.85,0.02,CRC,1.75,0.5460,0.98,61773944174.00,1.1330,0.5520,7.60,San Josï¿½ï¿½ï¿½ï¿½ï¿½ï¿½,80.10,27.00,1.84,Spanish,0.22,2.89,"5,047,561",0.6210,0.1360,0.5830,11.85%,"4,041,885",9.748917,-83.75343
Croatia,73,HR,0.2760,"56,594","18,000",9,385,Zagreb,"17,488",109.82,0.01,HRK,1.47,0.3440,1.26,60415553039.00,0.9650,0.6790,4.00,Zagreb,78.10,8.00,2.92,Croatian,0.15,3.00,"4,067,500",0.5120,0.2200,0.2050,6.93%,"2,328,318",45.1,15.20000
Cuba,106,CU,0.5990,"110,860","76,000",10.17,53,Havana,"28,284",,,CUP,1.62,0.3130,1.4,100023000000.00,1.0190,0.4140,3.70,Havana,78.70,36.00,0.05,Spanish,,8.42,"11,333,483",0.5360,,,1.64%,"8,739,135",21.521757,-77.78117
Cyprus,131,CY,0.1220,"9,251","16,000",10.46,357,Nicosia,"6,626",102.51,0.00,EUR,1.33,0.1870,1.23,24564647935.00,0.9930,0.7590,1.90,Statosï¿½ï¿½ï¿½ï¿½ï¿½ï¿½ï¿½,80.80,6.00,,Greek,0.44,1.95,"1,198,575",0.6310,0.2450,0.2240,7.27%,"800,708",35.126413,33.42986
Czech Republic,139,CZ,0.4520,"78,867","23,000",10.7,420,Prague,"102,218",116.48,0.03,CZK,1.69,0.3460,1.17,246489245495.00,1.0070,0.6410,2.70,Prague,79.00,3.00,3,Czech,0.15,4.12,"10,669,709",0.6060,0.1490,0.4610,1.93%,"7,887,156",49.817492,15.47296
Democratic Republic of the Congo,40,CD,0.1160,"2,344,858","134,000",41.18,243,Kinshasa,"2,021",133.85,0.03,CDF,5.92,0.6720,1.49,47319624204.00,1.0800,0.0660,68.20,Kinshasa,60.40,473.00,0.18,French,0.37,0.07,"86,790,567",0.6350,0.1070,0.5070,4.24%,"39,095,679",-4.038333,21.75866
Denmark,137,DK,0.6200,"43,094","15,000",10.6,45,Copenhagen,"31,786",110.35,0.01,DKK,1.73,0.1470,1.55,348078018464.00,1.0130,0.8060,3.60,Copenhagen,81.00,4.00,,Danish,0.14,4.01,"5,818,553",0.6220,0.3240,0.2380,4.91%,"5,119,978",56.26392,9.50179
Djibouti,43,DJ,0.7340,"23,200","13,000",21.47,253,Djibouti City,620,120.25,0.03,DJF,2.73,0.0020,1.32,3318716359.00,0.7530,0.0530,49.80,Djibouti City,66.60,248.00,,French,0.20,0.22,"973,560",0.6020,,0.3790,10.30%,"758,549",11.825138,42.59028
Dominica,96,DM,0.3330,751,,12,1,Roseau,180,103.87,0.01,XCD,1.9,0.5740,,596033333.00,1.1470,0.0720,32.90,Roseau,76.60,,1.48,English,0.28,1.08,"71,808",,0.2210,0.3260,,"50,830",15.414999,-61.37098
Dominican Republic,225,DO,0.4870,"48,670","71,000",19.51,1,Santo Domingo,"25,258",135.50,0.02,DOP,2.35,0.4170,1.07,88941298258.00,1.0570,0.5990,24.10,Santo Domingo,73.90,95.00,0.4,Spanish,0.44,1.56,"10,738,958",0.6430,0.1300,0.4880,5.84%,"8,787,475",18.735693,-70.16265
Ecuador,71,EC,0.2220,"283,561","41,000",19.72,593,Quito,"41,155",124.14,0.00,USD,2.43,0.5020,0.61,107435665000.00,1.0330,0.4490,12.20,Quito,76.80,59.00,2.46,Spanish,0.44,2.04,"17,373,662",0.6800,,0.3440,3.97%,"11,116,711",-1.831239,-78.18341
Egypt,103,EG,0.0380,"1,001,450","836,000",26.38,20,Cairo,"238,560",288.57,0.09,EGP,3.33,0.0010,0.4,303175127598.00,1.0630,0.3520,18.10,Cairo,71.80,37.00,,Modern Standard Arabic,0.62,0.45,"100,388,073",0.4640,0.1250,0.4440,10.76%,"42,895,824",26.820553,30.80250
El Salvador,313,SV,0.7640,"21,041","42,000",18.25,503,San Salvador,"7,169",111.23,0.00,,2.04,0.1260,0.83,27022640000.00,0.9480,0.2940,11.80,San Salvador,73.10,46.00,0.5,Spanish,0.28,1.57,"6,453,553",0.5910,0.1810,0.3640,4.11%,"4,694,702",13.794185,-88.89653
Equatorial Guinea,50,GQ,0.1010,"28,051","1,000",33.24,240,Malabo,"5,655",124.35,0.01,XAF,4.51,0.5550,,11026774945.00,0.6180,0.0190,62.60,Malabo,58.40,301.00,1.05,Spanish,0.72,0.40,"1,355,986",0.6200,0.0610,0.7940,6.43%,"984,812",1.650801,10.26790
Eritrea,35,ER,0.7520,"117,600","202,000",30.3,291,Asmara,711,,,ERN,4.06,0.1490,2,2065001626.00,0.6840,0.0340,31.30,Asmara,65.90,480.00,,Tigrinya,0.52,0.06,"6,333,135",0.7840,,0.8370,5.14%,"1,149,670",15.179384,39.78233
Estonia,31,EE,0.2310,"45,228","6,000",10.9,372,Tallinn,"16,590",122.14,0.02,EUR,1.59,0.5130,1.14,31386949981.00,0.9720,0.6960,2.10,Tallinn,78.20,9.00,3.14,Estonian,0.23,4.48,"1,331,824",0.6360,0.2090,0.4780,5.11%,"916,024",58.595272,25.01361
Eswatini,67,,,"17,364",,,268,Mbabane,,,,,,,,3791304348.00,,,,Mbabane,,,,English,0.11,,"1,093,238",,0.2860,,,,-26.522503,31.46587
Ethiopia,115,ET,0.3630,"1,104,300","138,000",32.34,251,Addis Ababa,"14,870",143.86,0.16,ETB,4.25,0.1250,0.75,96107662398.00,1.0100,0.0810,39.10,Addis Ababa,66.20,401.00,,Amharic,0.38,0.08,"112,078,730",0.7960,0.0750,0.3770,2.08%,"23,788,710",9.145,40.48967
Fiji,49,FJ,0.2330,"18,274","4,000",21.28,679,Suva,"2,046",132.30,0.02,FJD,2.77,0.5590,0.82,5535548972.00,1.0640,0.1610,21.60,Suva,67.30,34.00,1.28,Fiji Hindi,0.21,0.84,"889,953",0.5760,0.2420,0.3210,4.10%,"505,048",-17.713371,178.06503
Finland,18,FI,0.0750,"338,145","25,000",8.6,358,Helsinki,"45,871",112.33,0.01,EUR,1.41,0.7310,1.45,268761201365.00,1.0020,0.8820,1.40,Helsinki,81.70,3.00,,Swedish,0.20,3.81,"5,520,314",0.5910,0.2080,0.3660,6.59%,"4,716,888",61.92411,25.74815
France,119,FR,0.5240,"643,801","307,000",11.3,33,Paris,"303,276",110.05,0.01,EUR,1.88,0.3120,1.39,2715518274227.00,1.0250,0.6560,3.40,Paris,82.50,8.00,11.16,French,0.07,3.27,"67,059,887",0.5510,0.2420,0.6070,8.43%,"54,123,364",46.227638,2.21375
Gabon,9,GA,0.2000,"267,667","7,000",31.61,241,Libreville,"5,321",122.19,0.02,XAF,3.97,0.9000,0.92,16657960228.00,1.3990,0.0830,32.70,Libreville,66.20,252.00,1.46,French,0.26,0.68,"2,172,579",0.5290,0.1020,0.4710,20.00%,"1,949,694",-0.803689,11.60944
The Gambia,239,GM,0.5980,"11,300","1,000",38.54,220,Banjul,532,172.73,0.07,GMD,5.22,0.4840,1.18,1763819048.00,0.9800,0.0270,39.00,Serekunda,61.70,597.00,0.13,English,0.20,0.10,"2,347,706",0.5940,0.0940,0.4840,9.06%,"1,453,958",13.443182,-15.31014
Georgia,57,GE,0.3450,"69,700","26,000",13.47,995,Tbilisi,"10,128",133.61,0.05,GEL,2.06,0.4060,0.76,17743195770.00,0.9860,0.6390,8.70,Tbilisi,73.60,25.00,0.05,Georgian,0.57,7.12,"3,720,382",0.6830,0.2170,0.0990,14.40%,"2,196,476",42.315407,43.35689
Germany,240,DE,0.4770,"357,022","180,000",9.5,49,Berlin,"727,973",112.85,0.01,EUR,1.56,0.3270,1.39,3845630030824.00,1.0400,0.7020,3.10,Berlin,80.90,7.00,9.99,German,0.13,4.25,"83,132,799",0.6080,0.1150,0.4880,3.04%,"64,324,835",51.165691,10.45153
Ghana,137,GH,0.6900,"238,533","16,000",29.41,233,Accra,"16,670",268.36,0.07,GHS,3.87,0.4120,0.92,66983634224.00,1.0480,0.1570,34.90,Accra,63.80,308.00,0.27,English,0.36,0.14,"30,792,608",0.6780,0.1260,0.5540,4.33%,"17,249,054",7.946527,-1.02319
Greece,81,GR,0.4760,"131,957","146,000",8.1,30,Athens,"62,434",101.87,0.00,EUR,1.35,0.3170,1.54,209852761469.00,0.9960,1.3660,3.60,Macedonia,81.30,3.00,4.46,Greek,0.36,5.48,"10,716,322",0.5180,0.2620,0.5190,17.24%,"8,507,474",39.074208,21.82431
Grenada,331,GD,0.2350,349,,16.47,1,"St. George's, Grenada",268,107.43,0.01,XCD,2.06,0.5000,1.12,1228170370.00,1.0690,1.0460,13.70,"St. George's, Grenada",72.40,25.00,,English,0.57,1.41,"112,003",,0.1940,0.4780,,"40,765",12.1165,-61.67900
Guatemala,167,GT,0.3600,"108,889","43,000",24.56,502,Guatemala City,"16,777",142.92,0.04,GTQ,2.87,0.3270,0.79,76710385880.00,1.0190,0.2180,22.10,Guatemala City,74.10,95.00,1.6,Spanish,0.56,0.35,"16,604,026",0.6230,0.1060,0.3520,2.46%,"8,540,945",15.783471,-90.23076
Guinea,53,GN,0.5900,"245,857","13,000",36.36,224,Conakry,"2,996",262.95,0.10,GNF,4.7,0.2580,0.9,13590281809.00,0.9150,0.1160,64.90,Kankan,61.20,576.00,,French,0.55,0.08,"12,771,246",0.6150,0.1080,0.6930,4.30%,"4,661,505",9.945587,-9.69665
Guinea-Bissau,70,GW,0.5800,"36,125","4,000",35.13,245,Bissau,293,111.65,0.01,XOF,4.48,0.6980,,1340389411.00,1.1870,0.0260,54.00,Bissau,58.00,667.00,0.16,Portuguese,0.37,0.13,"1,920,922",0.7200,0.1030,0.4550,2.47%,"840,922",11.803749,-15.18041
Guyana,4,GY,0.0860,"214,969","3,000",19.97,592,"Georgetown, Guyana","2,384",116.19,0.02,GYD,2.46,0.8390,0.9,4280443645.00,0.9780,0.1160,25.10,"Georgetown, Guyana",69.80,169.00,0.98,English,0.41,0.80,"782,766",0.5620,,0.3060,11.85%,"208,912",4.860416,-58.93018
Haiti,414,HT,0.6680,"27,750",0,24.35,509,Port-au-Prince,"2,978",179.29,0.13,HTG,2.94,0.0350,0.81,8498981821.00,1.1360,0.0110,49.50,Port-au-Prince,63.70,480.00,0.25,French,0.36,0.23,"11,263,077",0.6720,,0.4270,13.78%,"6,328,948",18.971187,-72.28522
Vatican City,"2,003",,,0,,,379,Vatican City,,,,EUR,,,,,,,,,,,,Italian,,,836,,,,,,41.902916,12.45339
Honduras,89,HN,0.2890,"112,090","23,000",21.6,504,Tegucigalpa,"9,813",150.34,0.04,HNL,2.46,0.4000,0.98,25095395475.00,0.9150,0.2620,15.10,Tegucigalpa,75.10,65.00,1.01,Spanish,0.49,0.31,"9,746,117",0.6880,0.1730,0.3910,5.39%,"5,626,433",15.199999,-86.24191
Hungary,107,HU,0.5840,"93,028","40,000",9.6,36,Budapest,"45,537",121.64,0.03,HUF,1.54,0.2290,1.18,160967157504.00,1.0080,0.4850,3.60,Budapest,75.80,12.00,2.62,Hungarian,0.29,3.41,"9,769,949",0.5650,0.2300,0.3790,3.40%,"6,999,582",47.162494,19.50330
Iceland,3,IS,0.1870,"103,000",0,12,354,Reykjavï¿½ï¿½,"2,065",129.00,0.03,ISK,1.71,0.0050,1.69,24188035739.00,1.0040,0.7180,1.50,Reykjavï¿½ï¿½,82.70,4.00,,Icelandic,0.17,4.08,"361,313",0.7500,0.2330,0.3190,2.84%,"339,110",64.963051,-19.02084
India,464,IN,0.6040,"3,287,263","3,031,000",17.86,91,New Delhi,"2,407,672",180.44,0.08,INR,2.22,0.2380,0.97,2611000000000.00,1.1300,0.2810,29.90,Kurebhar,69.40,145.00,0.3,Hindi,0.65,0.86,"1,366,417,754",0.4930,0.1120,0.4970,5.36%,"471,031,528",20.593684,78.96288
Indonesia,151,ID,0.3150,"1,904,569","676,000",18.07,62,Jakarta,"563,325",151.18,0.03,IDR,2.31,0.4990,0.63,1119190780753.00,1.0640,0.3630,21.10,Kalimantan,71.50,177.00,0.48,Indonesian,0.48,0.43,"270,203,917",0.6750,0.1020,0.3010,4.69%,"151,509,724",-0.789275,113.92133
Iran,52,IR,0.2820,"1,648,195","563,000",18.78,98,Tehran,"661,710",550.93,0.40,IRR,2.14,0.0660,0.4,445345282123.00,1.1070,0.6810,12.40,Tehran,76.50,16.00,1.58,Persian,0.40,1.58,"82,913,906",0.4470,0.0740,0.4470,11.38%,"62,509,623",32.427908,53.68805
Iraq,93,IQ,0.2140,"438,317","209,000",29.08,964,Baghdad,"190,061",119.86,0.00,IQD,3.67,0.0190,0.61,234094042939.00,1.0870,0.1620,22.50,Baghdad,70.50,79.00,1.24,Arabic,0.77,0.71,"39,309,783",0.4300,0.0200,0.3080,12.82%,"27,783,368",33.223191,43.67929
Republic of Ireland,72,,0.6450,"70,273","9,000",12.5,353,Dublin,"37,711",106.58,0.01,EUR,1.75,0.1100,1.37,388698711348.00,1.0090,0.7780,3.10,Connacht,82.30,5.00,10.79,Irish,0.15,3.31,"5,007,069",0.6210,0.1830,0.2610,4.93%,"3,133,123",53.41291,-8.24389
Israel,400,IL,0.2460,"20,770","178,000",20.8,972,Jerusalem,"65,166",108.15,0.01,ILS,3.09,0.0770,1.57,395098666122.00,1.0490,0.6340,3.00,Jerusalem,82.80,3.00,7.58,Hebrew,0.24,4.62,"9,053,300",0.6400,0.2310,0.2530,3.86%,"8,374,393",31.046051,34.85161
Italy,206,IT,0.4320,"301,340","347,000",7.3,39,Rome,"320,411",110.62,0.01,EUR,1.29,0.3180,1.61,2001244392042.00,1.0190,0.6190,2.60,Rome,82.90,2.00,,Italian,0.23,3.98,"60,297,396",0.4960,0.2430,0.5910,9.89%,"42,651,966",41.87194,12.56738
Jamaica,273,JM,0.4100,"10,991","4,000",16.1,1876,"Kingston, Jamaica","8,225",162.47,0.04,JMD,1.98,0.3090,1.11,16458071068.00,0.9100,0.2710,12.40,"Kingston, Jamaica",74.40,80.00,1.33,Jamaican English,0.24,1.31,"2,948,279",0.6600,0.2680,0.3510,8.00%,"1,650,594",18.109581,-77.29751
Japan,347,JP,0.1230,"377,944","261,000",7.4,81,Tokyo,"1,135,886",105.48,0.01,,1.42,0.6850,1.06,5081769542380.00,0.9880,0.6320,1.80,Tokyo,84.20,5.00,6.77,None,0.13,2.41,"126,226,568",0.6170,0.1190,0.4670,2.29%,"115,782,416",36.204824,138.25292
Jordan,115,JO,0.1200,"89,342","116,000",21.98,962,Amman,"25,108",125.60,0.01,JOD,2.76,0.0110,1.1,43743661972.00,0.8150,0.3440,13.90,Amman,74.40,46.00,1.49,Arabic,0.25,2.32,"10,101,694",0.3930,0.1510,0.2860,14.72%,"9,213,048",30.585164,36.23841
Kazakhstan,7,KZ,0.8040,"2,724,900","71,000",21.77,7,Astana,"247,207",182.75,0.05,KZT,2.84,0.0120,0.42,180161741180.00,1.0440,0.6170,8.80,Almaty,73.20,10.00,0.41,Russian,0.39,3.25,"18,513,930",0.6880,0.1170,0.2840,4.59%,"10,652,915",48.019573,66.92368
Kenya,94,KE,0.4850,"580,367","29,000",28.75,254,Nairobi,"17,910",180.51,0.05,KES,3.49,0.0780,0.95,95503088538.00,1.0320,0.1150,30.60,Nairobi,66.30,342.00,0.25,Swahili,0.33,0.16,"52,573,973",0.7470,0.1510,0.3720,2.64%,"14,461,523",-0.023559,37.90619
Kiribati,147,KI,0.4200,811,,27.89,686,South Tarawa,66,99.55,0.01,AUD,3.57,0.1500,,194647202.00,1.0130,,41.20,South Tarawa,68.10,92.00,,English,0.00,0.20,"117,606",,0.2200,0.3270,,"64,489",1.8368976,-157.37683
Kuwait,240,KW,0.0840,"17,818","25,000",13.94,965,Kuwait City,"98,734",126.60,0.01,KWD,2.08,0.0040,0.35,134761198946.00,0.9240,0.5440,6.70,Kuwait City,75.40,12.00,0.95,Modern Standard Arabic,0.14,2.58,"4,207,083",0.7350,0.0140,0.1300,2.18%,"4,207,083",29.31166,47.48177
Kyrgyzstan,34,KG,0.5500,"199,951","21,000",27.1,996,Bishkek,"9,787",155.68,0.01,KGS,3.3,0.0330,0.56,8454619608.00,1.0760,0.4130,16.90,Bishkek,71.40,60.00,0.09,Russian,0.48,1.88,"6,456,900",0.5980,0.1800,0.2900,6.33%,"2,362,644",41.20438,74.76610
Laos,32,LA,0.1030,"236,800","129,000",23.55,856,Vientiane,"17,763",135.87,0.03,LAK,2.67,0.8210,0.93,18173839128.00,1.0240,0.1500,37.60,Vientiane,67.60,185.00,0.83,Lao,0.45,0.37,"7,169,455",0.7850,0.1290,0.2410,0.63%,"2,555,552",19.85627,102.49550
Latvia,30,LV,0.3110,"64,589","6,000",10,371,Riga,"7,004",116.86,0.03,EUR,1.6,0.5400,1.16,34117202555.00,0.9940,0.8810,3.30,Riga,74.70,19.00,2.8,Latvian,0.42,3.19,"1,912,789",0.6140,0.2290,0.3810,6.52%,"1,304,943",56.879635,24.60319
Lebanon,667,LB,0.6430,"10,400","80,000",17.55,961,Beirut,"24,796",130.02,0.03,LBP,2.09,0.1340,0.74,53367042272.00,0.9510,0.2630,6.40,"Tripoli, Lebanon",78.90,29.00,2.15,Arabic,0.32,2.10,"6,855,713",0.4700,0.1530,0.3220,6.23%,"6,084,994",33.854721,35.86229
Lesotho,71,LS,0.7760,"30,355","2,000",26.81,266,Maseru,"2,512",155.86,0.05,,3.14,0.0160,0.7,2460072444.00,1.2090,0.1020,65.70,Maseru,53.70,544.00,0.41,English,0.17,0.07,"2,125,268",0.6790,0.3160,0.1360,23.41%,"607,508",-29.609988,28.23361
Liberia,53,LR,0.2800,"111,369","2,000",33.04,231,Monrovia,"1,386",223.13,0.24,,4.32,0.4310,0.8,3070518100.00,0.8510,0.1190,53.50,Monrovia,63.70,661.00,0.17,English,0.20,0.04,"4,937,374",0.7630,0.1290,0.4620,2.81%,"2,548,426",6.428055,-9.42950
Libya,4,LY,0.0870,"1,759,540",0,18.83,218,,"50,564",125.71,0.03,LYD,2.24,0.0010,0.11,52076250948.00,1.0900,0.6050,10.20,,72.70,72.00,1.88,Arabic,0.37,2.09,"6,777,452",0.4970,,0.3260,18.56%,"5,448,597",26.3351,17.22833
Liechtenstein,238,LI,0.3220,160,,9.9,423,Vaduz,51,,,CHF,1.44,0.4310,1.74,6552858739.00,1.0470,0.3560,,Schaan,83.00,,,German,,,"38,019",,,0.2160,,"5,464",47.1410392,9.52094
Lithuania,43,LT,0.4720,"65,300","34,000",10,370,Vilnius,"12,963",118.38,0.02,EUR,1.63,0.3480,1.16,54219315600.00,1.0390,0.7240,3.30,Vilnius,75.70,8.00,2.41,Lithuanian,0.32,6.35,"2,786,844",0.6160,0.1690,0.4260,6.35%,"1,891,013",55.169438,23.88128
Luxembourg,242,LU,0.5370,"2,586","2,000",10.3,352,Luxembourg City,"8,988",115.09,0.02,EUR,1.37,0.3570,1.19,71104919108.00,1.0230,0.1920,1.90,Luxembourg City,82.10,5.00,13.05,Luxembourgish,0.11,3.01,"645,397",0.5930,0.2650,0.2040,5.36%,"565,488",49.815273,6.12958
Madagascar,48,MG,0.7120,"587,041","22,000",32.66,261,Antananarivo,"3,905",184.33,0.06,MGA,4.08,0.2140,1.11,14083906357.00,1.4250,0.0540,38.20,Antananarivo,66.70,335.00,0.21,French,0.22,0.18,"26,969,307",0.8610,0.1020,0.3830,1.76%,"10,210,849",-18.766947,46.86911
Malawi,203,MW,0.6140,"118,484","15,000",34.12,265,Lilongwe,"1,298",418.34,0.09,MWK,4.21,0.3320,1.15,7666704427.00,1.4250,0.0080,35.30,Lilongwe,63.80,349.00,0.12,English,0.11,0.04,"18,628,747",0.7670,0.1730,0.3450,5.65%,"3,199,301",-13.254308,34.30153
Malaysia,99,MY,0.2630,"329,847","136,000",16.75,60,Kuala Lumpur,"248,289",121.46,0.01,MYR,2,0.6760,0.45,364701517788.00,1.0530,0.4510,6.70,Johor Bahru,76.00,29.00,0.93,Malaysian language,0.37,1.51,"32,447,385",0.6430,0.1200,0.3870,3.32%,"24,475,766",4.210484,101.97577
Maldives,"1,802",MV,0.2630,298,"5,000",14.2,960,Malï¿½,"1,445",99.70,0.00,,1.87,0.0330,1.63,5729248472.00,0.9710,0.3120,7.40,Malï¿½,78.60,53.00,,Divehi,0.16,4.56,"530,953",0.6980,0.1950,0.3020,6.14%,"213,645",3.202778,73.22068
Mali,17,ML,0.3380,"1,240,192","18,000",41.54,223,Bamako,"3,179",108.73,-0.02,XOF,5.88,0.0380,1.12,17510141171.00,0.7560,0.0450,62.00,Bamako,58.90,562.00,0.23,French,0.46,0.13,"19,658,031",0.7080,0.1160,0.5450,7.22%,"8,479,688",17.570692,-3.99617
Malta,"1,380",MT,0.3240,316,"2,000",9.2,356,Valletta,"1,342",113.45,0.02,EUR,1.23,0.0110,1.36,14786156563.00,1.0500,0.5430,6.10,Birkirkara,82.30,6.00,5.07,Maltese,0.37,2.86,"502,653",0.5650,0.2620,0.4400,3.47%,"475,902",35.937496,14.37542
Marshall Islands,329,MH,0.6390,181,,29.03,692,Majuro,143,,,USD,4.05,0.7020,1.44,221278000.00,0.8470,0.2370,27.40,Majuro,65.20,,2,Marshallese,0.10,0.42,"58,791",,0.1780,0.6590,,"45,514",7.131474,171.18448
Mauritania,5,MR,0.3850,"1,030,700","21,000",33.69,222,Nouakchott,"2,739",135.02,0.02,MRU,4.56,0.0020,1.13,7593752450.00,0.9990,0.0500,51.50,Nouakchott,64.70,766.00,0.53,Arabic,0.48,0.19,"4,525,696",0.4590,,0.6700,9.55%,"2,466,821",21.00789,-10.94084
Mauritius,626,MU,0.4240,"2,040","3,000",10.2,230,Port Louis,"4,349",129.91,0.00,MUR,1.41,0.1900,1.12,14180444557.00,1.0110,0.4060,13.60,Port Louis,74.40,61.00,0.38,French,0.51,2.53,"1,265,711",0.5830,0.1910,0.2220,6.67%,"515,980",-20.348404,57.55215
Mexico,66,MX,0.5460,"1,964,375","336,000",17.6,52,Mexico City,"486,406",141.54,0.04,MXN,2.13,0.3390,0.73,1258286717125.00,1.0580,0.4020,11.00,Mexico City,75.00,33.00,0.49,None,0.41,2.38,"126,014,024",0.6070,0.1310,0.5510,3.42%,"102,626,859",23.634501,-102.55278
Federated States of Micronesia,784,FM,0.3140,702,,22.82,691,Palikir,143,112.10,0.01,USD,3.05,0.9190,,401932279.00,0.9720,0.1410,25.60,Palikir,67.80,88.00,,English,0.03,0.18,"113,815",,0.2520,0.6050,,"25,963",7.425554,150.55081
Moldova,123,MD,0.7420,"33,851","7,000",10.1,373,Chiï¿½ï¿½ï¿½ï¿½,"5,115",166.20,0.05,MDL,1.26,0.1260,0.8,11955435457.00,0.9060,0.3980,13.60,Chiï¿½ï¿½ï¿½ï¿½,71.80,19.00,0.31,Romanian,0.46,3.21,"2,657,637",0.4310,0.1770,0.3870,5.47%,"1,135,502",47.411631,28.36989
Monaco,"26,337",MC,,2,,5.9,377,Monaco City,,,,EUR,,,2,7184844193.00,,,2.60,Monaco City,,,11.72,French,0.06,6.56,"38,964",,,,,"38,964",43.7384176,7.42462
Mongolia,2,MN,0.7150,"1,564,116","18,000",24.13,976,Ulaanbaatar,"25,368",195.76,0.07,MNT,2.9,0.0800,0.72,13852850259.00,1.0400,0.6560,14.00,Ulaanbaatar,69.70,45.00,0.65,Mongolian,0.39,2.86,"3,225,167",0.5970,0.1680,0.2570,6.01%,"2,210,626",46.862496,103.84666
Montenegro,47,ME,0.1900,"13,812","12,000",11.73,382,Podgorica,"2,017",116.32,0.03,EUR,1.75,0.6150,1.16,5494736901.00,1.0000,0.5610,2.30,Podgorica,76.80,6.00,1.23,Montenegrin language,0.32,2.76,"622,137",0.5440,,0.2220,14.88%,"417,765",42.708678,19.37439
Morocco,83,MA,0.6850,"446,550","246,000",18.94,212,Rabat,"61,276",111.07,0.00,MAD,2.42,0.1260,0.99,118725279596.00,1.1390,0.3590,19.20,Casablanca,76.50,70.00,1.6,Arabic,0.53,0.73,"36,910,560",0.4530,0.2190,0.4580,9.02%,"22,975,026",31.791702,-7.09262
Mozambique,40,MZ,0.6350,"799,380","11,000",37.52,258,Maputo,"7,943",182.31,0.03,MZN,4.85,0.4800,0.65,14934159926.00,1.1260,0.0730,54.00,Maputo,60.20,289.00,0.27,Portuguese,0.07,0.08,"30,366,036",0.7810,0.0000,0.3610,3.24%,"11,092,106",-18.665695,35.52956
Myanmar,83,MM,0.1950,"676,578","513,000",17.55,95,Naypyidaw,"25,280",168.18,0.09,MMK,2.15,0.4360,0.54,76085852617.00,1.1230,0.1880,36.80,Yangon,66.90,250.00,0.39,Burmese,0.74,0.68,"54,045,420",0.6170,0.0540,0.3120,1.58%,"16,674,093",21.916221,95.95597
Namibia,3,,0.4710,"824,292","16,000",28.64,264,Windhoek,"4,228",157.97,0.04,,3.4,0.0830,0.76,12366527719.00,1.2420,0.2290,29.00,Windhoek,63.40,195.00,,English,0.08,0.42,"2,494,530",0.5950,0.2710,0.2070,20.27%,"1,273,258",-22.95764,18.49041
Nauru,541,NR,,21,,,674,Yaren District,,,,AUD,,,,133000000.00,,,,,,,,English,,,"10,084",,,,,,-0.522778,166.93150
Nepal,203,NP,0.2870,"147,181","112,000",19.89,977,Kathmandu,"9,105",188.73,0.06,NPR,1.92,0.2540,0.91,30641380604.00,1.4210,0.1240,26.70,Kathmandu,70.50,186.00,0.36,Nepali,0.60,0.75,"28,608,710",0.8380,0.2070,0.4180,1.41%,"5,765,513",28.394857,84.12401
Netherlands,508,NL,0.5330,"41,543","41,000",9.7,31,Amsterdam,"170,780",115.91,0.03,,1.59,0.1120,1.68,909070395161.00,1.0420,0.8500,3.30,Amsterdam,81.80,5.00,10.29,Dutch,0.12,3.61,"17,332,850",0.6360,0.2300,0.4120,3.20%,"15,924,729",52.132633,5.29127
New Zealand,18,NZ,0.4050,"268,838","9,000",11.98,64,Wellington,"34,382",114.24,0.02,NZD,1.71,0.3860,1.4,206928765544.00,1.0000,0.8200,4.70,Auckland,81.90,9.00,11.49,English,0.13,3.59,"4,841,000",0.6990,0.2900,0.3460,4.07%,"4,258,860",-40.900557,174.88597
Nicaragua,55,NI,0.4210,"130,370","12,000",20.64,505,Managua,"5,592",162.74,0.05,NIO,2.4,0.2590,0.91,12520915291.00,1.2060,0.1740,15.70,Managua,74.30,98.00,0.54,Spanish,0.36,0.98,"6,545,502",0.6640,0.1560,0.6060,6.84%,"3,846,137",12.865416,-85.20723
Niger,19,NE,0.3610,"1,267,000","10,000",46.08,227,Niamey,"2,017",109.32,-0.03,XOF,6.91,0.0090,0.88,12928145120.00,0.7470,0.0440,48.00,Niamey,62.00,509.00,0.29,French,0.52,0.04,"23,310,715",0.7200,0.1180,0.4720,0.47%,"3,850,231",17.607789,8.08167
Nigeria,226,NG,0.7770,"923,768","215,000",37.91,234,Abuja,"120,369",267.51,0.11,NGN,5.39,0.0720,0.46,448120428859.00,0.8470,0.1020,75.70,Lagos,54.30,917.00,0.54,English,0.72,0.38,"200,963,599",0.5290,0.0150,0.3480,8.10%,"102,806,948",9.081999,8.67528
North Korea,214,KP,0.2180,"120,538","1,469,000",13.89,850,Pyongyang,"28,284",,,KPW,1.9,0.4070,0.58,32100000000.00,1.1280,0.2700,13.70,Pyongyang,72.10,89.00,,Korean,,3.67,"25,666,161",0.8040,,,2.74%,"15,947,412",40.339852,127.51009
North Macedonia,83,,,"25,713",,,389,Skopje,,,,MKD,,,,10220781069.00,,,,Skopje,,,,Macedonian,0.36,,"1,836,713",,,,,,41.608635,21.74528
Norway,15,NO,0.0270,"323,802","23,000",10.4,47,Oslo,"41,023",120.27,0.02,NOK,1.56,0.3320,1.78,403336363636.00,1.0030,0.8200,2.10,Oslo,82.80,2.00,,Norwegian,0.14,2.92,"5,347,896",0.6380,0.2390,0.3620,3.35%,"4,418,218",60.472024,8.46895
Oman,16,OM,0.0460,"309,500","47,000",19.19,968,Muscat,"63,457",113.53,0.00,OMR,2.89,0.0000,0.45,76983094928.00,1.0340,0.3800,9.80,Seeb,77.60,19.00,4.33,Arabic,0.06,2.00,"5,266,535",0.7240,0.0250,0.2740,2.67%,"4,250,777",21.4735329,55.97541
Pakistan,287,PK,0.4780,"796,095","936,000",28.25,92,Islamabad,"201,150",182.32,0.11,PKR,3.51,0.0190,0.79,304400000000.00,0.9430,0.0900,57.20,Karachi,67.10,140.00,0.69,Urdu,0.67,0.98,"216,565,318",0.5260,0.0920,0.3390,4.45%,"79,927,762",30.375321,69.34512
Palau,39,PW,0.1090,459,,14,680,Ngerulmud,224,118.17,0.01,USD,2.21,0.8760,,283994900.00,1.1260,0.5470,16.60,Koror,69.10,,3,English,0.22,1.18,"18,233",,0.2130,0.7660,,"14,491",7.51498,134.58252
Palestinian National Authority,847,,,,,,,,,,,,,,,,,,,,,,,Arabic,,,,,,,,,31.952162,35.23315
Panama,58,PA,0.3040,"75,420","26,000",18.98,507,Panama City,"10,715",122.07,0.00,,2.46,0.6190,0.74,66800800000.00,0.9440,0.4780,13.10,Panama City,78.30,52.00,1.53,Spanish,0.31,1.57,"4,246,439",0.6660,,0.3720,3.90%,"2,890,084",8.537981,-80.78213
Papua New Guinea,20,PG,0.0260,"462,840","4,000",27.07,675,Port Moresby,"7,536",155.99,0.04,PGK,3.56,0.7410,1.36,24969611435.00,1.0850,0.0180,38.00,Port Moresby,64.30,145.00,1.16,Tok Pisin,0.06,0.07,"8,776,109",0.4720,0.1360,0.3710,2.46%,"1,162,834",-6.314993,143.95555
Paraguay,18,PY,0.5510,"406,752","27,000",20.57,595,Asunciï¿½ï¿½,"7,407",143.82,0.03,PYG,2.43,0.3770,1.04,38145288940.00,1.0440,0.3460,17.20,Ciudad del Este,74.10,129.00,1.55,Spanish,0.37,1.35,"7,044,636",0.7210,0.1000,0.3500,4.81%,"4,359,150",-23.442503,-58.44383
Peru,26,PE,0.1850,"1,285,216","158,000",17.95,51,Lima,"57,414",129.78,0.02,PEN,2.25,0.5770,0.99,226848050820.00,1.0690,0.7070,11.10,Lima,76.50,88.00,1.28,Spanish,0.31,1.27,"32,510,453",0.7760,0.1430,0.3680,3.31%,"25,390,339",-9.189967,-75.01515
Philippines,368,PH,0.4170,"300,000","153,000",20.55,63,Manila,"122,287",129.61,0.03,PHP,2.58,0.2780,0.86,376795508680.00,1.0750,0.3550,22.50,Manila,71.10,121.00,1.12,English,0.54,0.60,"108,116,615",0.5960,0.1400,0.4310,2.15%,"50,975,903",12.879721,121.77402
Poland,124,PL,0.4690,"312,685","191,000",10.2,48,Warsaw,"299,037",114.11,0.02,PLN,1.46,0.3090,1.07,592164400688.00,1.0000,0.6780,3.80,Warsaw,77.60,2.00,2.93,Polish,0.23,2.38,"37,970,874",0.5670,0.1740,0.4080,3.47%,"22,796,574",51.919438,19.14514
Portugal,111,PT,0.3950,"92,212","52,000",8.5,351,Lisbon,"48,742",110.62,0.00,EUR,1.38,0.3460,1.54,237686075635.00,1.0620,0.6390,3.10,Lisbon,81.30,8.00,3.78,Portuguese,0.28,5.12,"10,269,417",0.5880,0.2280,0.3980,6.33%,"6,753,579",39.399872,-8.22445
Qatar,248,QA,0.0580,"11,586","22,000",9.54,974,Doha,"103,259",115.38,-0.01,QAR,1.87,0.0000,0.4,183466208791.00,1.0380,0.1790,5.80,Doha,80.10,9.00,,Arabic,0.06,2.49,"2,832,067",0.8680,0.1470,0.1130,0.09%,"2,809,071",25.354826,51.18388
Romania,84,RO,0.5880,"238,391","126,000",9.6,40,Bucharest,"69,259",123.78,0.04,RON,1.71,0.3010,1.16,250077444017.00,0.8520,0.4940,6.10,Bucharest,75.40,19.00,2.25,Romanian,0.21,2.98,"19,356,544",0.5470,0.1460,0.2000,3.98%,"10,468,793",45.943161,24.96676
Russia,9,RU,0.1330,"17,098,240","1,454,000",11.5,7,Moscow,"1,732,027",180.75,0.05,RUB,1.57,0.4980,0.59,1699876578871.00,1.0260,0.8190,6.10,Moscow,72.70,17.00,0.53,Russian,0.36,4.01,"144,373,535",0.6180,0.1140,0.4620,4.59%,"107,683,889",61.52401,105.31876
Rwanda,525,RW,0.7340,"26,338","35,000",31.7,250,Kigali,"1,115",151.09,0.03,RWF,4.04,0.1970,1.17,10122472590.00,1.3300,0.0670,27.00,Kigali,68.70,248.00,,Swahili,0.26,0.13,"12,626,950",0.8370,0.1430,0.3320,1.03%,"2,186,104",-1.940278,29.87389
Saint Kitts and Nevis,205,KN,0.2310,261,,12.6,1,Basseterre,238,104.57,-0.01,XCD,2.11,0.4230,,1050992593.00,1.0870,0.8670,9.80,Basseterre,71.30,,3.33,English,0.57,2.52,"52,823",,0.1850,0.4970,,"16,269",17.357822,-62.78300
Saint Lucia,301,LC,0.1740,616,,12,1,Castries,414,110.13,0.02,XCD,1.44,0.3320,1.3,2122450630.00,1.0260,0.1410,14.90,Castries,76.10,117.00,,English,0.48,0.64,"182,790",0.6710,0.1820,0.3470,20.71%,"34,280",13.909444,-60.97889
Saint Vincent and the Grenadines,284,VC,0.2560,389,,14.24,1,Kingstown,220,109.67,0.02,XCD,1.89,0.6920,,825385185.00,1.1340,0.2370,14.80,Calliaqua,72.40,68.00,1.16,English,0.21,0.66,"100,455",0.6590,0.2540,0.3700,18.88%,"58,185",12.984305,-61.28723
Samoa,70,WS,0.1240,"2,831",,24.38,685,Apia,246,117.56,0.01,WST,3.88,0.6040,0.91,850655017.00,1.1050,0.0760,13.60,Apia,73.20,43.00,0.78,Samoan,0.12,0.34,"202,506",0.4370,0.2550,0.1930,8.36%,"35,588",-13.759029,-172.10463
San Marino,566,SM,0.1670,61,,6.8,378,City of San Marino,,110.63,0.01,EUR,1.26,0.0000,,1637931034.00,1.0810,0.4250,1.70,City of San Marino,85.40,,,Italian,0.18,6.11,"33,860",,0.1810,0.3620,,"32,969",43.94236,12.45778
Sï¿½ï¿½ï¿½ï¿½ï¿½ï¿½ï¿½ï¿½ï¿½ï¿½ï¿½,228,ST,0.5070,964,"1,000",31.54,239,Sï¿½ï¿½ï¿½ï¿½,121,185.09,0.08,STN,4.32,0.5580,,429016605.00,1.0680,0.1340,24.40,Sï¿½ï¿½ï¿½ï¿½,70.20,130.00,,,0.12,0.05,"215,056",0.5780,0.1460,0.3700,13.37%,"158,277",,
Saudi Arabia,16,SA,0.8080,"2,149,690","252,000",17.8,966,Riyadh,"563,449",118.40,-0.01,SAR,2.32,0.0050,0.24,792966838162.00,0.9980,0.6800,6.00,Riyadh,75.00,17.00,3.85,Arabic,0.15,2.61,"34,268,528",0.5590,0.0890,0.1570,5.93%,"28,807,838",23.885942,45.07916
Senegal,87,SN,0.4610,"196,722","19,000",34.52,221,Dakar,"10,902",109.25,0.02,XOF,4.63,0.4280,1.14,23578084052.00,0.8100,0.1280,31.80,Pikine,67.70,315.00,0.31,French,0.44,0.07,"16,296,364",0.4570,0.1630,0.4480,6.60%,"7,765,706",14.497401,-14.45236
Serbia,100,RS,0.3930,"77,474","32,000",9.2,381,Belgrade,"45,221",144.00,0.02,RSD,1.49,0.3110,1.16,51409167351.00,1.0030,0.6720,4.80,Belgrade,75.50,12.00,1.57,Serbian,0.41,3.11,"6,944,975",0.5490,0.1860,0.3660,12.69%,"3,907,243",44.016521,21.00586
Seychelles,214,SC,0.0340,455,0,17.1,248,"Victoria, Seychelles",605,129.96,0.02,SCR,2.41,0.8840,,1698843063.00,1.0040,0.1710,12.40,"Victoria, Seychelles",72.80,53.00,2,French,0.03,0.95,"97,625",,0.3410,0.3010,,"55,762",-4.679574,55.49198
Sierra Leone,111,SL,0.5470,"71,740","9,000",33.41,232,Freetown,"1,093",234.16,0.15,SLL,4.26,0.4310,1.08,3941474311.00,1.1280,0.0200,78.50,Freetown,54.30,1120.00,0.57,English,0.38,0.03,"7,813,215",0.5790,0.0860,0.3070,4.43%,"3,319,366",8.460555,-11.77989
Singapore,"8,358",SG,0.0090,716,"81,000",8.8,65,,"37,535",114.41,0.01,SGD,1.14,0.2310,1.25,372062527489.00,1.0060,0.8480,2.30,,83.10,8.00,,Malay,0.37,2.29,"5,703,569",0.7050,0.1310,0.2100,4.11%,"5,703,569",1.352083,103.81984
Slovakia,114,SK,0.3920,"49,035","16,000",10.6,421,Bratislava,"32,424",115.34,0.03,EUR,1.52,0.4040,1.32,105422304976.00,0.9870,0.4660,4.60,Bratislava,77.20,5.00,3.11,Slovak,0.18,3.42,"5,454,073",0.5950,0.1870,0.4970,5.56%,"2,930,419",48.669026,19.69902
Slovenia,103,SI,0.3070,"20,273","7,000",9.4,386,Ljubljana,"12,633",111.05,0.02,EUR,1.6,0.6200,1.32,53742159517.00,1.0040,0.7860,1.70,Ljubljana,81.00,7.00,5.25,Slovene language,0.13,3.09,"2,087,946",0.5840,0.1860,0.3100,4.20%,"1,144,654",46.151241,14.99546
Solomon Islands,25,SB,0.0390,"28,896",,32.44,677,Honiara,169,133.06,0.02,SBD,4.4,0.7790,,1425074226.00,1.0620,,17.10,Honiara,72.80,104.00,0.4,English,0.03,0.19,"669,823",0.8380,0.2950,0.3200,0.58%,"162,164",-9.64571,160.15619
Somalia,25,SO,0.7030,"637,657","20,000",41.75,252,Mogadishu,645,,,SOS,6.07,0.1000,1.41,4720727278.00,0.2340,0.0250,76.60,Bosaso,57.10,829.00,,Arabic,,0.02,"15,442,905",0.4740,0.0000,,11.35%,"7,034,861",5.152149,46.19962
South Africa,49,ZA,0.7980,"1,219,090","80,000",20.51,27,Pretoria,"476,644",158.93,0.04,ZAR,2.41,0.0760,0.92,351431649241.00,1.0090,0.2240,28.50,Johannesburg,63.90,119.00,,Afrikaans,0.08,0.91,"58,558,270",0.5600,0.2750,0.2920,28.18%,"39,149,717",-30.559482,22.93751
South Korea,527,KR,0.1740,"99,720","634,000",6.4,82,Seoul,"620,302",115.16,0.00,KRW,0.98,0.6340,1.22,2029000000000.00,0.9810,0.9430,2.70,Seoul,82.60,11.00,6.49,Korean,0.37,2.36,"51,709,098",0.6300,0.1560,0.3320,4.15%,"42,106,719",35.907757,127.76692
South Sudan,18,SS,,"644,329","185,000",35.01,211,Juba,"1,727",4583.71,1.88,SSP,4.7,,0.28,11997800751.00,0.7300,,63.70,Juba,57.60,1150.00,,English,0.61,,"11,062,113",0.7240,,0.3140,12.24%,"2,201,250",6.8769919,31.30698
Spain,94,ES,0.5260,"505,370","196,000",7.9,34,Madrid,"244,002",110.96,0.01,EUR,1.26,0.3690,1.26,1394116310769.00,1.0270,0.8890,2.50,Madrid,83.30,4.00,5.6,Spanish,0.24,3.87,"47,076,781",0.5750,0.1420,0.4700,13.96%,"37,927,409",40.463667,-3.74922
Sri Lanka,341,LK,0.4370,"65,610","317,000",15.83,94,Colombo,"23,362",155.53,0.04,LKR,2.2,0.3290,0.88,84008783756.00,1.0020,0.1960,6.40,Colombo,76.80,36.00,0.35,Tamil,0.38,1.00,"21,803,000",0.5390,0.1190,0.5520,4.20%,"4,052,088",7.873054,80.77180
Sudan,25,SD,0.2870,"1,861,484","124,000",32.18,249,Khartoum,"20,000",1344.19,0.51,SDG,4.41,0.0810,0.95,18902284476.00,0.7680,0.1690,42.10,Omdurman,65.10,295.00,0.41,Arabic,0.63,0.26,"42,813,238",0.4840,0.0800,0.4540,16.53%,"14,957,233",12.862807,30.21764
Suriname,4,SR,0.0060,"163,820","2,000",18.54,597,Paramaribo,"1,738",294.66,0.22,SRD,2.42,0.9830,1.29,3985250737.00,1.0880,0.1260,16.90,Paramaribo,71.60,120.00,,Dutch,0.10,1.21,"581,372",0.5110,0.1950,0.2790,7.33%,"384,258",3.919305,-56.02778
Sweden,25,SE,0.0740,"450,295","30,000",11.4,46,Stockholm,"43,252",110.51,0.02,SEK,1.76,0.6890,1.42,530832908738.00,1.2660,0.6700,2.20,Sï¿½ï¿½ï¿½ï¿½ï¿½,82.50,4.00,,Swedish,0.15,3.98,"10,285,453",0.6460,0.2790,0.4910,6.48%,"9,021,165",60.128161,18.64350
Switzerland,219,CH,0.3840,"41,277","21,000",10,41,Bern,"34,477",99.55,0.00,CHF,1.52,0.3180,1.45,703082435360.00,1.0520,0.5960,3.70,Zï¿½ï¿½ï¿½,83.60,5.00,,German,0.28,4.30,"8,574,832",0.6830,0.1010,0.2880,4.58%,"6,332,428",46.818188,8.22751
Syria,95,SY,0.7580,"185,180","239,000",23.69,963,Damascus,"28,830",143.20,0.37,SYP,2.81,0.0270,0.83,40405006007.00,0.8170,0.4010,14.00,Damascus,71.80,31.00,1.02,Arabic,0.54,1.22,"17,070,135",0.4410,0.1420,0.4270,8.37%,"9,358,019",34.802075,38.99682
Tajikistan,68,TJ,0.3410,"144,100","17,000",30.76,992,Dushanbe,"5,310",148.57,0.06,TJS,3.59,0.0300,0.71,8116626794.00,1.0090,0.3130,30.40,Dushanbe,70.90,17.00,0.23,Persian,0.63,1.70,"9,321,018",0.4200,0.0980,0.6730,11.02%,"2,545,477",38.861034,71.27609
Tanzania,67,TZ,0.4480,"947,300","28,000",36.7,255,Dodoma,"11,973",187.43,0.04,TZS,4.89,0.5160,0.87,63177068175.00,0.9420,0.0400,37.60,Dar es Salaam,65.00,524.00,0.09,Swahili,0.26,0.01,"58,005,463",0.8340,0.1150,0.4380,1.98%,"20,011,885",-6.369028,34.88882
Thailand,137,TH,0.4330,"513,120","455,000",10.34,66,Bangkok,"283,763",113.27,0.01,THB,1.53,0.3220,0.71,543649976166.00,0.9980,0.4930,7.80,Bangkok,76.90,37.00,1.06,Thai,0.12,0.81,"69,625,582",0.6730,0.1490,0.2950,0.75%,"35,294,600",15.870032,100.99254
East Timor,89,TL,0.2560,"14,874","2,000",29.42,670,Dili,495,145.38,0.03,USD,4.02,0.4540,1.1,1673540300.00,1.1530,0.1780,39.30,Dili,69.30,142.00,0.6,Portuguese,0.10,0.72,"3,500,000",0.6730,0.2500,0.1730,4.55%,"400,182",-8.874217,125.72754
Togo,152,TG,0.7020,"56,785","10,000",33.11,228,Lomï¿½,"3,000",113.30,0.01,XOF,4.32,0.0310,0.71,5459979417.00,1.2380,0.1450,47.40,Lomï¿½,60.80,396.00,0.34,French,0.51,0.08,"8,082,366",0.7760,0.1690,0.4820,2.04%,"3,414,638",8.619543,0.82478
Tonga,147,TO,0.4580,747,,24.3,676,Nukuï¿½ï¿½ï¿½ï¿½,128,121.09,0.07,TOP,3.56,0.1250,,450353314.00,1.1630,0.0640,13.40,Nukuï¿½ï¿½ï¿½ï¿½,70.80,52.00,,Tongan Language,0.10,0.52,"100,209",0.5980,0.2230,0.2750,1.12%,"24,145",-21.178986,-175.19824
Trinidad and Tobago,273,TT,0.1050,"5,128","4,000",12.94,1,Port of Spain,"43,868",141.75,0.01,TTD,1.73,0.4600,0.54,24100202834.00,1.0620,0.1200,16.40,Chaguanas,73.40,67.00,2.25,English,0.37,4.17,"1,394,973",0.6000,0.1950,0.4050,2.69%,"741,944",10.691803,-61.22250
Tunisia,76,TN,0.6480,"163,610","48,000",17.56,216,Tunis,"29,937",155.33,0.07,TND,2.2,0.0680,0.73,38797709924.00,1.1540,0.3170,14.60,Tunis,76.50,43.00,0.47,Arabic,0.40,1.30,"11,694,719",0.4610,0.2110,0.6070,16.02%,"8,099,061",33.886917,9.53750
Turkey,110,TR,0.4980,"783,562","512,000",16.03,90,Ankara,"372,725",234.44,0.15,TRY,2.07,0.1540,1.42,754411708203.00,0.9320,0.2390,9.10,Istanbul,77.40,17.00,3.45,Turkish,0.17,1.85,"83,429,615",0.5280,0.1790,0.4230,13.49%,"63,097,818",38.963745,35.24332
Turkmenistan,13,TM,0.7200,"488,100","42,000",23.83,993,Ashgabat,"70,630",,,TMT,2.79,0.0880,0.29,40761142857.00,0.8840,0.0800,39.30,Ashgabat,68.10,7.00,0.88,Turkmen,0.71,2.22,"5,942,089",0.6450,,,3.91%,"3,092,738",38.969719,59.55628
Tuvalu,393,TV,0.6000,26,,,688,Funafuti,11,,,AUD,,0.3330,,47271463.00,0.8600,,20.60,Singapore,,,,Tuvaluan Language,0.01,0.92,"11,646",,,,,"7,362",-7.109535,177.64933
Uganda,229,UG,0.7190,"241,038","46,000",38.14,256,Kampala,"5,680",173.87,0.03,UGX,4.96,0.0970,0.94,34387229486.00,1.0270,0.0480,33.80,Buganda,63.00,375.00,0.01,Swahili,0.41,0.17,"44,269,594",0.7030,0.1170,0.3370,1.84%,"10,784,516",1.373333,32.29028
Ukraine,75,UA,0.7170,"603,550","297,000",8.7,380,Kyiv,"202,250",281.66,0.08,UAH,1.3,0.1670,0.83,153781069118.00,0.9900,0.8270,7.50,Kyiv,71.60,19.00,0.84,Ukrainian,0.48,2.99,"44,385,155",0.5420,0.2010,0.4520,8.88%,"30,835,699",48.379433,31.16558
United Arab Emirates,118,AE,0.0550,"83,600","63,000",10.33,971,Abu Dhabi,"206,324",114.52,-0.02,AED,1.41,0.0460,0.49,421142267938.00,1.0840,0.3680,6.50,Dubai,77.80,3.00,,Arabic,0.18,2.53,"9,770,529",0.8210,0.0010,0.1590,2.35%,"8,479,744",23.424076,53.84782
United Kingdom,281,GB,0.7170,"243,610","148,000",11,44,London,"379,025",119.62,0.02,GBP,1.68,0.1310,1.46,2827113184696.00,1.0120,0.6000,3.60,London,81.30,7.00,10.13,English,0.15,2.81,"66,834,405",0.6280,0.2550,0.3060,3.85%,"55,908,316",55.378051,-3.43597
United States,36,US,0.4440,"9,833,517","1,359,000",11.6,1,"Washington, D.C.","5,006,302",117.24,0.08,USD,1.73,0.3390,0.71,21427700000000.00,1.0180,0.8820,5.60,New York City,78.50,19.00,7.25,None,0.11,2.61,"328,239,523",0.6200,0.0960,0.3660,14.70%,"270,663,028",37.09024,-95.71289
Uruguay,20,UY,0.8260,"176,215","22,000",13.86,598,Montevideo,"6,766",202.92,0.08,UYU,1.97,0.1070,1.5,56045912952.00,1.0850,0.6310,6.40,Montevideo,77.80,17.00,1.66,Spanish,0.16,5.05,"3,461,734",0.6400,0.2010,0.4180,8.73%,"3,303,394",-32.522779,-55.76584
Uzbekistan,79,UZ,0.6290,"447,400","68,000",23.3,998,Tashkent,"91,811",,,UZS,2.42,0.0750,1.03,57921286440.00,1.0420,0.1010,19.10,Tashkent,71.60,29.00,0.24,Uzbek,0.43,2.37,"33,580,650",0.6510,0.1480,0.3160,5.92%,"16,935,729",41.377491,64.58526
Vanuatu,25,VU,0.1530,"12,189",,29.6,678,Port Vila,147,117.13,0.03,VUV,3.78,0.3610,1.31,917058851.00,1.0930,0.0470,22.30,Port Vila,70.30,72.00,1.56,French,0.09,0.17,"299,882",0.6990,0.1780,0.0850,4.39%,"76,152",-15.376706,166.95916
Venezuela,32,VE,0.2450,"912,050","343,000",17.88,58,Caracas,"164,175",2740.27,2.55,VED,2.27,0.5270,0,482359318768.00,0.9720,0.7930,21.40,Caracas,72.10,125.00,0.01,Spanish,0.46,1.92,"28,515,829",0.5970,,0.7330,8.80%,"25,162,368",6.42375,-66.58973
Vietnam,314,VN,0.3930,"331,210","522,000",16.75,84,Hanoi,"192,668",163.52,0.03,VND,2.05,0.4810,0.8,261921244843.00,1.1060,0.2850,16.50,Ho Chi Minh City,75.30,43.00,0.73,Vietnamese,0.44,0.82,"96,462,106",0.7740,0.1910,0.3760,2.01%,"35,332,140",14.058324,108.27720
Yemen,56,YE,0.4460,"527,968","40,000",30.45,967,Sanaa,"10,609",157.58,0.08,YER,3.79,0.0100,0.92,26914402224.00,0.9360,0.1020,42.90,Sanaa,66.10,164.00,,Arabic,0.81,0.31,"29,161,922",0.3800,,0.2660,12.91%,"10,869,523",15.552727,48.51639
Zambia,25,ZM,0.3210,"752,618","16,000",36.19,260,Lusaka,"5,141",212.31,0.09,ZMW,4.63,0.6520,1.4,23064722446.00,0.9870,0.0410,40.40,Lusaka,63.50,213.00,0.24,English,0.28,1.19,"17,861,030",0.7460,0.1620,0.1560,11.43%,"7,871,713",-13.133897,27.84933
Zimbabwe,38,ZW,0.4190,"390,757","51,000",30.68,263,Harare,"10,983",105.51,0.01,,3.62,0.3550,1.34,21440758800.00,1.0990,0.1000,33.90,Harare,61.20,458.00,,Shona,0.26,0.21,"14,645,468",0.8310,0.2070,0.3160,4.95%,"4,717,305",-19.015438,29.15486